{
  "companies": [
    {"id": "688256", "name": "寒武纪科技股份有限公司", "short_name": "寒武纪", "stock_code": "688256", "market": "科创板", "industry_id": "gpu", "province": "北京", "city": "北京", "lat": 39.9042, "lng": 116.4074, "main_business": "AI芯片设计，智能处理器IP及芯片产品", "market_cap": 1850, "employee_count": 1800, "list_date": "2020-07-20"},
    {"id": "688041", "name": "海光信息技术股份有限公司", "short_name": "海光信息", "stock_code": "688041", "market": "科创板", "industry_id": "cpu", "province": "天津", "city": "天津", "lat": 39.3434, "lng": 117.3616, "main_business": "高端处理器及加速器，x86兼容CPU", "market_cap": 3200, "employee_count": 2100, "list_date": "2022-08-12"},
    {"id": "300474", "name": "长沙景嘉微电子股份有限公司", "short_name": "景嘉微", "stock_code": "300474", "market": "创业板", "industry_id": "gpu", "province": "湖南", "city": "长沙", "lat": 28.2282, "lng": 112.9388, "main_business": "GPU芯片设计与图形显控产品", "market_cap": 560, "employee_count": 1200, "list_date": "2016-03-31"},
    {"id": "688047", "name": "龙芯中科技术股份有限公司", "short_name": "龙芯中科", "stock_code": "688047", "market": "科创板", "industry_id": "cpu", "province": "北京", "city": "北京", "lat": 39.9042, "lng": 116.4074, "main_business": "国产CPU处理器及配套芯片", "market_cap": 850, "employee_count": 1400, "list_date": "2022-06-24"},
    {"id": "688521", "name": "芯原微电子(上海)股份有限公司", "short_name": "芯原股份", "stock_code": "688521", "market": "科创板", "industry_id": "chip_design", "province": "上海", "city": "上海", "lat": 31.2304, "lng": 121.4737, "main_business": "芯片设计服务与半导体IP授权", "market_cap": 480, "employee_count": 1600, "list_date": "2020-08-18"},
    {"id": "688008", "name": "澜起科技股份有限公司", "short_name": "澜起科技", "stock_code": "688008", "market": "科创板", "industry_id": "chip_design", "province": "上海", "city": "上海", "lat": 31.2304, "lng": 121.4737, "main_business": "内存接口芯片及PCIe Retimer芯片", "market_cap": 1100, "employee_count": 800, "list_date": "2019-07-22"},
    {"id": "688536", "name": "思瑞浦微电子科技(苏州)股份有限公司", "short_name": "思瑞浦", "stock_code": "688536", "market": "科创板", "industry_id": "chip_design", "province": "江苏", "city": "苏州", "lat": 31.2990, "lng": 120.5853, "main_business": "高性能模拟与混合信号芯片", "market_cap": 380, "employee_count": 700, "list_date": "2020-09-21"},
    {"id": "688981", "name": "中芯国际集成电路制造有限公司", "short_name": "中芯国际", "stock_code": "688981", "market": "科创板", "industry_id": "chip_design", "province": "上海", "city": "上海", "lat": 31.2304, "lng": 121.4737, "main_business": "集成电路晶圆代工", "market_cap": 4800, "employee_count": 20000, "list_date": "2020-07-16"},

    {"id": "000977", "name": "浪潮电子信息产业股份有限公司", "short_name": "浪潮信息", "stock_code": "000977", "market": "深主板", "industry_id": "server", "province": "山东", "city": "济南", "lat": 36.6500, "lng": 117.1200, "main_business": "AI服务器、通用服务器及IT基础设施", "market_cap": 720, "employee_count": 15000, "list_date": "2000-06-08"},
    {"id": "603019", "name": "曙光信息产业股份有限公司", "short_name": "中科曙光", "stock_code": "603019", "market": "沪主板", "industry_id": "server", "province": "天津", "city": "天津", "lat": 39.3434, "lng": 117.3616, "main_business": "高性能计算机、AI服务器及超算系统", "market_cap": 980, "employee_count": 6000, "list_date": "2014-11-06"},
    {"id": "601138", "name": "富士康工业互联网股份有限公司", "short_name": "工业富联", "stock_code": "601138", "market": "沪主板", "industry_id": "server", "province": "广东", "city": "深圳", "lat": 22.5431, "lng": 114.0579, "main_business": "AI服务器、云计算设备及工业互联网", "market_cap": 4500, "employee_count": 200000, "list_date": "2018-06-08"},
    {"id": "000938", "name": "紫光股份有限公司", "short_name": "紫光股份", "stock_code": "000938", "market": "深主板", "industry_id": "server", "province": "北京", "city": "北京", "lat": 39.9042, "lng": 116.4074, "main_business": "ICT基础设施及服务，服务器与网络设备", "market_cap": 780, "employee_count": 25000, "list_date": "1999-11-04"},
    {"id": "000063", "name": "中兴通讯股份有限公司", "short_name": "中兴通讯", "stock_code": "000063", "market": "深主板", "industry_id": "switch_router", "province": "广东", "city": "深圳", "lat": 22.5431, "lng": 114.0579, "main_business": "通信设备、服务器及企业网络解决方案", "market_cap": 1400, "employee_count": 75000, "list_date": "1997-11-18"},
    {"id": "002230", "name": "科大讯飞股份有限公司", "short_name": "科大讯飞", "stock_code": "002230", "market": "深主板", "industry_id": "llm", "province": "安徽", "city": "合肥", "lat": 31.8206, "lng": 117.2272, "main_business": "AI大模型(讯飞星火)、智能语音与AI应用", "market_cap": 1500, "employee_count": 15000, "list_date": "2008-05-12"},
    {"id": "688327", "name": "云从科技集团股份有限公司", "short_name": "云从科技", "stock_code": "688327", "market": "科创板", "industry_id": "ai_app", "province": "广东", "city": "广州", "lat": 23.1292, "lng": 113.2644, "main_business": "AI操作系统与行业大模型应用", "market_cap": 180, "employee_count": 1200, "list_date": "2022-05-27"},
    {"id": "300229", "name": "拓尔思信息技术股份有限公司", "short_name": "拓尔思", "stock_code": "300229", "market": "创业板", "industry_id": "llm", "province": "北京", "city": "北京", "lat": 39.9042, "lng": 116.4074, "main_business": "大模型与NLP、大数据与内容管理", "market_cap": 160, "employee_count": 2000, "list_date": "2011-06-15"},
    {"id": "688111", "name": "北京金山办公软件股份有限公司", "short_name": "金山办公", "stock_code": "688111", "market": "科创板", "industry_id": "ai_app", "province": "北京", "city": "北京", "lat": 39.9042, "lng": 116.4074, "main_business": "AI办公应用(WPS AI)与协同办公", "market_cap": 2100, "employee_count": 5000, "list_date": "2019-11-18"},
    {"id": "688787", "name": "北京海天瑞声科技股份有限公司", "short_name": "海天瑞声", "stock_code": "688787", "market": "科创板", "industry_id": "ai_data_service", "province": "北京", "city": "北京", "lat": 39.9042, "lng": 116.4074, "main_business": "AI训练数据服务、数据标注与数据合成", "market_cap": 65, "employee_count": 500, "list_date": "2021-08-13"},

    {"id": "300308", "name": "中际旭创股份有限公司", "short_name": "中际旭创", "stock_code": "300308", "market": "创业板", "industry_id": "optical_module", "province": "山东", "city": "淄博", "lat": 36.8135, "lng": 118.0550, "main_business": "高速光模块(800G/1.6T)研发与制造", "market_cap": 1200, "employee_count": 4000, "list_date": "2012-04-10"},
    {"id": "300502", "name": "成都新易盛通信技术股份有限公司", "short_name": "新易盛", "stock_code": "300502", "market": "创业板", "industry_id": "optical_module", "province": "四川", "city": "成都", "lat": 30.5728, "lng": 104.0668, "main_business": "光模块研发生产，面向数据中心及5G", "market_cap": 620, "employee_count": 2500, "list_date": "2016-03-03"},
    {"id": "300394", "name": "苏州天孚光通信股份有限公司", "short_name": "天孚通信", "stock_code": "300394", "market": "创业板", "industry_id": "optical_module", "province": "江苏", "city": "苏州", "lat": 31.2990, "lng": 120.5853, "main_business": "光无源器件与光模块组件", "market_cap": 450, "employee_count": 2000, "list_date": "2015-02-17"},
    {"id": "002281", "name": "武汉光迅科技股份有限公司", "short_name": "光迅科技", "stock_code": "002281", "market": "深主板", "industry_id": "optical_module", "province": "湖北", "city": "武汉", "lat": 30.5928, "lng": 114.3055, "main_business": "光电子器件与光模块", "market_cap": 350, "employee_count": 3500, "list_date": "2009-08-21"},
    {"id": "000988", "name": "华工科技产业股份有限公司", "short_name": "华工科技", "stock_code": "000988", "market": "深主板", "industry_id": "optical_module", "province": "湖北", "city": "武汉", "lat": 30.5928, "lng": 114.3055, "main_business": "激光设备与光通信器件", "market_cap": 420, "employee_count": 5000, "list_date": "2000-06-08"},
    {"id": "300570", "name": "深圳太辰光通信股份有限公司", "short_name": "太辰光", "stock_code": "300570", "market": "创业板", "industry_id": "optical_module", "province": "广东", "city": "深圳", "lat": 22.5431, "lng": 114.0579, "main_business": "光器件与光纤连接器", "market_cap": 120, "employee_count": 1500, "list_date": "2016-12-06"},
    {"id": "688205", "name": "德科立光电子科技股份有限公司", "short_name": "德科立", "stock_code": "688205", "market": "科创板", "industry_id": "optical_module", "province": "江苏", "city": "无锡", "lat": 31.4912, "lng": 120.3119, "main_business": "光放大器与光模块", "market_cap": 130, "employee_count": 800, "list_date": "2022-08-09"},
    {"id": "688313", "name": "仕佳光子科技股份有限公司", "short_name": "仕佳光子", "stock_code": "688313", "market": "科创板", "industry_id": "optical_module", "province": "河南", "city": "鹤壁", "lat": 35.7470, "lng": 114.2974, "main_business": "PLC光分路器芯片与光模块", "market_cap": 80, "employee_count": 1000, "list_date": "2020-08-12"},

    {"id": "601869", "name": "长飞光纤光缆股份有限公司", "short_name": "长飞光纤", "stock_code": "601869", "market": "沪主板", "industry_id": "optical_fiber", "province": "湖北", "city": "武汉", "lat": 30.5928, "lng": 114.3055, "main_business": "光纤预制棒、光纤及光缆", "market_cap": 500, "employee_count": 8000, "list_date": "2018-07-20"},
    {"id": "600487", "name": "江苏亨通光电股份有限公司", "short_name": "亨通光电", "stock_code": "600487", "market": "沪主板", "industry_id": "optical_fiber", "province": "江苏", "city": "苏州", "lat": 31.2990, "lng": 120.5853, "main_business": "光纤光缆与海洋通信", "market_cap": 450, "employee_count": 15000, "list_date": "2003-08-22"},
    {"id": "600522", "name": "江苏中天科技股份有限公司", "short_name": "中天科技", "stock_code": "600522", "market": "沪主板", "industry_id": "optical_fiber", "province": "江苏", "city": "南通", "lat": 31.9796, "lng": 120.8937, "main_business": "光纤通信与电力传输", "market_cap": 520, "employee_count": 16000, "list_date": "2002-10-24"},
    {"id": "600498", "name": "烽火通信科技股份有限公司", "short_name": "烽火通信", "stock_code": "600498", "market": "沪主板", "industry_id": "optical_fiber", "province": "湖北", "city": "武汉", "lat": 30.5928, "lng": 114.3055, "main_business": "光通信设备与光纤光缆", "market_cap": 380, "employee_count": 12000, "list_date": "2001-08-23"},
    {"id": "300548", "name": "博创科技股份有限公司", "short_name": "博创科技", "stock_code": "300548", "market": "创业板", "industry_id": "optical_fiber", "province": "浙江", "city": "嘉兴", "lat": 30.7710, "lng": 120.7551, "main_business": "PLC光分路器与DWDM器件", "market_cap": 90, "employee_count": 800, "list_date": "2016-10-12"},

    {"id": "002396", "name": "福建星网锐捷通讯股份有限公司", "short_name": "星网锐捷", "stock_code": "002396", "market": "深主板", "industry_id": "switch_router", "province": "福建", "city": "福州", "lat": 26.0745, "lng": 119.2965, "main_business": "数据中心交换机与企业网络设备", "market_cap": 200, "employee_count": 8000, "list_date": "2010-06-23"},
    {"id": "301165", "name": "锐捷网络股份有限公司", "short_name": "锐捷网络", "stock_code": "301165", "market": "创业板", "industry_id": "switch_router", "province": "福建", "city": "福州", "lat": 26.0745, "lng": 119.2965, "main_business": "数据中心交换机与园区网络设备", "market_cap": 350, "employee_count": 6000, "list_date": "2022-11-21"},
    {"id": "002583", "name": "海能达通信股份有限公司", "short_name": "海能达", "stock_code": "002583", "market": "深主板", "industry_id": "switch_router", "province": "广东", "city": "深圳", "lat": 22.5431, "lng": 114.0579, "main_business": "专网通信设备与解决方案", "market_cap": 120, "employee_count": 7000, "list_date": "2011-05-27"},

    {"id": "300383", "name": "北京光环新网科技股份有限公司", "short_name": "光环新网", "stock_code": "300383", "market": "创业板", "industry_id": "data_center", "province": "北京", "city": "北京", "lat": 39.9042, "lng": 116.4074, "main_business": "数据中心运营与云计算服务", "market_cap": 250, "employee_count": 1500, "list_date": "2014-01-29"},
    {"id": "603881", "name": "上海数据港股份有限公司", "short_name": "数据港", "stock_code": "603881", "market": "沪主板", "industry_id": "data_center", "province": "上海", "city": "上海", "lat": 31.2304, "lng": 121.4737, "main_business": "定制化数据中心服务", "market_cap": 180, "employee_count": 800, "list_date": "2017-02-08"},
    {"id": "300738", "name": "广东奥飞数据科技股份有限公司", "short_name": "奥飞数据", "stock_code": "300738", "market": "创业板", "industry_id": "data_center", "province": "广东", "city": "广州", "lat": 23.1292, "lng": 113.2644, "main_business": "IDC服务与互联网综合服务", "market_cap": 150, "employee_count": 800, "list_date": "2017-01-19"},
    {"id": "600602", "name": "云赛智联股份有限公司", "short_name": "云赛智联", "stock_code": "600602", "market": "沪主板", "industry_id": "data_center", "province": "上海", "city": "上海", "lat": 31.2304, "lng": 121.4737, "main_business": "数据中心与智慧城市解决方案", "market_cap": 130, "employee_count": 2000, "list_date": "1992-12-02"},
    {"id": "002929", "name": "润建股份有限公司", "short_name": "润建股份", "stock_code": "002929", "market": "深主板", "industry_id": "data_center", "province": "广西", "city": "南宁", "lat": 22.8170, "lng": 108.3665, "main_business": "通信网络建设与IDC运维", "market_cap": 120, "employee_count": 9000, "list_date": "2018-03-01"},

    {"id": "002837", "name": "深圳市英维克科技股份有限公司", "short_name": "英维克", "stock_code": "002837", "market": "深主板", "industry_id": "cooling", "province": "广东", "city": "深圳", "lat": 22.5431, "lng": 114.0579, "main_business": "数据中心温控与液冷散热系统", "market_cap": 200, "employee_count": 2500, "list_date": "2016-12-29"},
    {"id": "300499", "name": "广州高澜节能技术股份有限公司", "short_name": "高澜股份", "stock_code": "300499", "market": "创业板", "industry_id": "cooling", "province": "广东", "city": "广州", "lat": 23.1292, "lng": 113.2644, "main_business": "液冷散热设备与电力电子冷却", "market_cap": 90, "employee_count": 1000, "list_date": "2016-02-02"},
    {"id": "603912", "name": "南京佳力图机房环境技术股份有限公司", "short_name": "佳力图", "stock_code": "603912", "market": "沪主板", "industry_id": "cooling", "province": "江苏", "city": "南京", "lat": 32.0603, "lng": 118.7969, "main_business": "数据中心精密空调与冷源系统", "market_cap": 65, "employee_count": 900, "list_date": "2017-11-01"},
    {"id": "300249", "name": "依米康科技集团股份有限公司", "short_name": "依米康", "stock_code": "300249", "market": "创业板", "industry_id": "cooling", "province": "四川", "city": "成都", "lat": 30.5728, "lng": 104.0668, "main_business": "数据中心基础设施与精密空调", "market_cap": 55, "employee_count": 1200, "list_date": "2011-08-03"},
    {"id": "301252", "name": "浙江同星科技股份有限公司", "short_name": "同星科技", "stock_code": "301252", "market": "创业板", "industry_id": "cooling", "province": "浙江", "city": "绍兴", "lat": 30.0303, "lng": 120.5800, "main_business": "热管理设备与制冷系统", "market_cap": 50, "employee_count": 700, "list_date": "2023-05-25"},

    {"id": "002463", "name": "沪士电子股份有限公司", "short_name": "沪电股份", "stock_code": "002463", "market": "深主板", "industry_id": "pcb", "province": "江苏", "city": "昆山", "lat": 31.3846, "lng": 120.9810, "main_business": "企业通讯PCB板与高速PCB", "market_cap": 580, "employee_count": 8000, "list_date": "2010-08-18"},
    {"id": "002916", "name": "深南电路股份有限公司", "short_name": "深南电路", "stock_code": "002916", "market": "深主板", "industry_id": "pcb", "province": "广东", "city": "深圳", "lat": 22.5431, "lng": 114.0579, "main_business": "高端PCB、封装基板及电子装联", "market_cap": 600, "employee_count": 10000, "list_date": "2017-12-13"},
    {"id": "603228", "name": "深圳市景旺电子股份有限公司", "short_name": "景旺电子", "stock_code": "603228", "market": "沪主板", "industry_id": "pcb", "province": "广东", "city": "深圳", "lat": 22.5431, "lng": 114.0579, "main_business": "印制电路板(PCB)与柔性电路板", "market_cap": 350, "employee_count": 10000, "list_date": "2017-01-06"},
    {"id": "600183", "name": "广东生益科技股份有限公司", "short_name": "生益科技", "stock_code": "600183", "market": "沪主板", "industry_id": "pcb", "province": "广东", "city": "东莞", "lat": 23.0207, "lng": 113.7518, "main_business": "覆铜板与粘结片", "market_cap": 520, "employee_count": 12000, "list_date": "1998-10-28"},
    {"id": "002938", "name": "鹏鼎控股(深圳)股份有限公司", "short_name": "鹏鼎控股", "stock_code": "002938", "market": "深主板", "industry_id": "pcb", "province": "广东", "city": "深圳", "lat": 22.5431, "lng": 114.0579, "main_business": "印制电路板(PCB)全球领先企业", "market_cap": 750, "employee_count": 30000, "list_date": "2018-09-18"},
    {"id": "603920", "name": "世运电路科技股份有限公司", "short_name": "世运电路", "stock_code": "603920", "market": "沪主板", "industry_id": "pcb", "province": "广东", "city": "江门", "lat": 22.5787, "lng": 113.0818, "main_business": "双面板与多层PCB板", "market_cap": 120, "employee_count": 5000, "list_date": "2017-04-26"},
    {"id": "300852", "name": "四会富仕电子科技股份有限公司", "short_name": "四会富仕", "stock_code": "300852", "market": "创业板", "industry_id": "pcb", "province": "广东", "city": "肇庆", "lat": 23.0470, "lng": 112.4600, "main_business": "高可靠性PCB制造", "market_cap": 60, "employee_count": 1500, "list_date": "2020-07-13"},
    {"id": "688183", "name": "生益电子股份有限公司", "short_name": "生益电子", "stock_code": "688183", "market": "科创板", "industry_id": "pcb", "province": "广东", "city": "东莞", "lat": 23.0207, "lng": 113.7518, "main_business": "高端PCB与封装基板", "market_cap": 200, "employee_count": 4000, "list_date": "2021-02-25"},
    {"id": "603186", "name": "浙江华正新材料股份有限公司", "short_name": "华正新材", "stock_code": "603186", "market": "沪主板", "industry_id": "pcb", "province": "浙江", "city": "杭州", "lat": 30.2741, "lng": 120.1551, "main_business": "覆铜板与复合材料", "market_cap": 100, "employee_count": 2500, "list_date": "2017-01-03"},
    {"id": "002436", "name": "深圳市兴森快捷电路科技股份有限公司", "short_name": "兴森科技", "stock_code": "002436", "market": "深主板", "industry_id": "pcb", "province": "广东", "city": "深圳", "lat": 22.5431, "lng": 114.0579, "main_business": "PCB样板快件与IC封装基板", "market_cap": 250, "employee_count": 5000, "list_date": "2010-06-18"},

    {"id": "002335", "name": "科华数据股份有限公司", "short_name": "科华数据", "stock_code": "002335", "market": "深主板", "industry_id": "power", "province": "福建", "city": "厦门", "lat": 24.4798, "lng": 118.0894, "main_business": "数据中心UPS电源与新能源", "market_cap": 180, "employee_count": 3000, "list_date": "2010-01-13"},
    {"id": "002364", "name": "杭州中恒电气股份有限公司", "short_name": "中恒电气", "stock_code": "002364", "market": "深主板", "industry_id": "power", "province": "浙江", "city": "杭州", "lat": 30.2741, "lng": 120.1551, "main_business": "数据中心电源系统与HVDC", "market_cap": 100, "employee_count": 1500, "list_date": "2010-03-05"},
    {"id": "002518", "name": "深圳科士达科技股份有限公司", "short_name": "科士达", "stock_code": "002518", "market": "深主板", "industry_id": "power", "province": "广东", "city": "深圳", "lat": 22.5431, "lng": 114.0579, "main_business": "UPS不间断电源与数据中心基础设施", "market_cap": 160, "employee_count": 3500, "list_date": "2010-12-07"},
    {"id": "300376", "name": "易事特集团股份有限公司", "short_name": "易事特", "stock_code": "300376", "market": "创业板", "industry_id": "power", "province": "广东", "city": "东莞", "lat": 23.0207, "lng": 113.7518, "main_business": "UPS电源与数据中心供电系统", "market_cap": 130, "employee_count": 4000, "list_date": "2014-01-27"},
    {"id": "300820", "name": "四川英杰电气股份有限公司", "short_name": "英杰电气", "stock_code": "300820", "market": "创业板", "industry_id": "power", "province": "四川", "city": "德阳", "lat": 31.1272, "lng": 104.3980, "main_business": "特种电源设备与直流电源", "market_cap": 85, "employee_count": 600, "list_date": "2019-03-19"},

    {"id": "002313", "name": "日海智能科技股份有限公司", "short_name": "日海智能", "stock_code": "002313", "market": "深主板", "industry_id": "chassis", "province": "广东", "city": "深圳", "lat": 22.5431, "lng": 114.0579, "main_business": "通信机柜与物联网智能设备", "market_cap": 70, "employee_count": 3000, "list_date": "2009-12-03"},
    {"id": "300870", "name": "深圳欧陆通电子股份有限公司", "short_name": "欧陆通", "stock_code": "300870", "market": "创业板", "industry_id": "power", "province": "广东", "city": "深圳", "lat": 22.5431, "lng": 114.0579, "main_business": "服务器电源与电源适配器", "market_cap": 60, "employee_count": 2000, "list_date": "2020-08-24"},

    {"id": "688561", "name": "奇安信科技集团股份有限公司", "short_name": "奇安信", "stock_code": "688561", "market": "科创板", "industry_id": "ai_app", "province": "北京", "city": "北京", "lat": 39.9042, "lng": 116.4074, "main_business": "AI+网络安全与数据安全", "market_cap": 450, "employee_count": 10000, "list_date": "2020-07-22"},
    {"id": "300454", "name": "深信服科技股份有限公司", "short_name": "深信服", "stock_code": "300454", "market": "创业板", "industry_id": "ai_app", "province": "广东", "city": "深圳", "lat": 22.5431, "lng": 114.0579, "main_business": "AI安全与云计算", "market_cap": 580, "employee_count": 8000, "list_date": "2018-05-16"},
    {"id": "002415", "name": "杭州海康威视数字技术股份有限公司", "short_name": "海康威视", "stock_code": "002415", "market": "深主板", "industry_id": "ai_app", "province": "浙江", "city": "杭州", "lat": 30.2741, "lng": 120.1551, "main_business": "AI视觉与智能物联", "market_cap": 3100, "employee_count": 55000, "list_date": "2010-05-28"},
    {"id": "688088", "name": "虹软科技股份有限公司", "short_name": "虹软科技", "stock_code": "688088", "market": "科创板", "industry_id": "ai_app", "province": "浙江", "city": "杭州", "lat": 30.2741, "lng": 120.1551, "main_business": "AI视觉算法与图像处理", "market_cap": 150, "employee_count": 800, "list_date": "2019-07-22"},

    {"id": "300624", "name": "万兴科技集团股份有限公司", "short_name": "万兴科技", "stock_code": "300624", "market": "创业板", "industry_id": "ai_app", "province": "西藏", "city": "拉萨", "lat": 29.6500, "lng": 91.1000, "main_business": "AI创意软件与数字创意", "market_cap": 150, "employee_count": 2000, "list_date": "2018-01-18"},
    {"id": "688095", "name": "福建福昕软件开发股份有限公司", "short_name": "福昕软件", "stock_code": "688095", "market": "科创板", "industry_id": "ai_app", "province": "福建", "city": "福州", "lat": 26.0745, "lng": 119.2965, "main_business": "AI+PDF文档处理与办公软件", "market_cap": 100, "employee_count": 600, "list_date": "2020-09-08"},
    {"id": "688369", "name": "北京致远互联软件股份有限公司", "short_name": "致远互联", "stock_code": "688369", "market": "科创板", "industry_id": "ai_app", "province": "北京", "city": "北京", "lat": 39.9042, "lng": 116.4074, "main_business": "AI协同办公与低代码平台", "market_cap": 80, "employee_count": 3000, "list_date": "2019-10-31"},

    {"id": "688568", "name": "中科星图股份有限公司", "short_name": "中科星图", "stock_code": "688568", "market": "科创板", "industry_id": "ai_app", "province": "北京", "city": "北京", "lat": 39.9042, "lng": 116.4074, "main_business": "AI+遥感与数字地球", "market_cap": 280, "employee_count": 1500, "list_date": "2020-07-08"},
    {"id": "603236", "name": "上海移远通信技术股份有限公司", "short_name": "移远通信", "stock_code": "603236", "market": "沪主板", "industry_id": "ai_app", "province": "上海", "city": "上海", "lat": 31.2304, "lng": 121.4737, "main_business": "AIoT通信模组与物联网", "market_cap": 250, "employee_count": 5000, "list_date": "2019-07-16"},

    {"id": "002049", "name": "紫光国芯微电子股份有限公司", "short_name": "紫光国微", "stock_code": "002049", "market": "深主板", "industry_id": "gpu", "province": "河北", "city": "唐山", "lat": 39.6305, "lng": 118.1802, "main_business": "智能安全芯片与FPGA", "market_cap": 900, "employee_count": 2500, "list_date": "2005-06-06"},
    {"id": "603501", "name": "上海韦尔半导体股份有限公司", "short_name": "韦尔股份", "stock_code": "603501", "market": "沪主板", "industry_id": "chip_design", "province": "上海", "city": "上海", "lat": 31.2304, "lng": 121.4737, "main_business": "CMOS图像传感器与模拟芯片", "market_cap": 1300, "employee_count": 3500, "list_date": "2017-05-04"},
    {"id": "688396", "name": "华润微电子有限公司", "short_name": "华润微", "stock_code": "688396", "market": "科创板", "industry_id": "chip_design", "province": "江苏", "city": "无锡", "lat": 31.4912, "lng": 120.3119, "main_business": "功率半导体与智能传感器", "market_cap": 620, "employee_count": 8000, "list_date": "2020-02-27"},
    {"id": "688728", "name": "格科微有限公司", "short_name": "格科微", "stock_code": "688728", "market": "科创板", "industry_id": "chip_design", "province": "上海", "city": "上海", "lat": 31.2304, "lng": 121.4737, "main_business": "CMOS图像传感器与显示驱动芯片", "market_cap": 380, "employee_count": 1200, "list_date": "2021-08-18"},

    {"id": "600845", "name": "上海宝信软件股份有限公司", "short_name": "宝信软件", "stock_code": "600845", "market": "沪主板", "industry_id": "ai_app", "province": "上海", "city": "上海", "lat": 31.2304, "lng": 121.4737, "main_business": "工业互联网与AI+智能制造", "market_cap": 800, "employee_count": 6000, "list_date": "1994-03-11"},
    {"id": "688777", "name": "浙江中控技术股份有限公司", "short_name": "中控技术", "stock_code": "688777", "market": "科创板", "industry_id": "ai_app", "province": "浙江", "city": "杭州", "lat": 30.2741, "lng": 120.1551, "main_business": "工业自动化与AI+流程工业", "market_cap": 600, "employee_count": 5000, "list_date": "2020-11-24"},

    {"id": "688031", "name": "星环信息科技(上海)股份有限公司", "short_name": "星环科技", "stock_code": "688031", "market": "科创板", "industry_id": "ai_data_service", "province": "上海", "city": "上海", "lat": 31.2304, "lng": 121.4737, "main_business": "大数据平台与AI基础设施软件", "market_cap": 100, "employee_count": 1000, "list_date": "2022-10-18"},
    {"id": "688316", "name": "北京青云科技股份有限公司", "short_name": "青云科技", "stock_code": "688316", "market": "科创板", "industry_id": "data_center", "province": "北京", "city": "北京", "lat": 39.9042, "lng": 116.4074, "main_business": "云计算平台与超融合系统", "market_cap": 40, "employee_count": 600, "list_date": "2021-03-16"},
    {"id": "688158", "name": "优刻得科技股份有限公司", "short_name": "优刻得", "stock_code": "688158", "market": "科创板", "industry_id": "data_center", "province": "上海", "city": "上海", "lat": 31.2304, "lng": 121.4737, "main_business": "云计算服务与AI算力平台", "market_cap": 80, "employee_count": 1000, "list_date": "2020-01-20"},

    {"id": "000034", "name": "神州数码集团股份有限公司", "short_name": "神州数码", "stock_code": "000034", "market": "深主板", "industry_id": "server", "province": "北京", "city": "北京", "lat": 39.9042, "lng": 116.4074, "main_business": "IT分销与AI算力基础设施", "market_cap": 220, "employee_count": 5000, "list_date": "1994-05-09"},
    {"id": "603496", "name": "恒为科技(上海)股份有限公司", "short_name": "恒为科技", "stock_code": "603496", "market": "沪主板", "industry_id": "switch_router", "province": "上海", "city": "上海", "lat": 31.2304, "lng": 121.4737, "main_business": "网络可视化与智能系统", "market_cap": 90, "employee_count": 700, "list_date": "2017-06-07"},
    {"id": "300687", "name": "广州赛意信息科技股份有限公司", "short_name": "赛意信息", "stock_code": "300687", "market": "创业板", "industry_id": "ai_app", "province": "广东", "city": "广州", "lat": 23.1292, "lng": 113.2644, "main_business": "AI+工业管理软件与智能制造", "market_cap": 120, "employee_count": 5000, "list_date": "2017-08-03"},

    {"id": "002065", "name": "东华软件股份公司", "short_name": "东华软件", "stock_code": "002065", "market": "深主板", "industry_id": "ai_app", "province": "北京", "city": "北京", "lat": 39.9042, "lng": 116.4074, "main_business": "AI+医疗IT与行业解决方案", "market_cap": 200, "employee_count": 8000, "list_date": "2006-08-23"},
    {"id": "300678", "name": "中科信息股份有限公司", "short_name": "中科信息", "stock_code": "300678", "market": "创业板", "industry_id": "ai_app", "province": "四川", "city": "成都", "lat": 30.5728, "lng": 104.0668, "main_business": "AI+数字会议与智慧政务", "market_cap": 80, "employee_count": 500, "list_date": "2017-07-28"},
    {"id": "300168", "name": "万达信息股份有限公司", "short_name": "万达信息", "stock_code": "300168", "market": "创业板", "industry_id": "ai_app", "province": "上海", "city": "上海", "lat": 31.2304, "lng": 121.4737, "main_business": "AI+智慧城市与医疗健康", "market_cap": 150, "employee_count": 5000, "list_date": "2011-01-25"},

    {"id": "300212", "name": "北京易华录信息技术股份有限公司", "short_name": "易华录", "stock_code": "300212", "market": "创业板", "industry_id": "data_center", "province": "北京", "city": "北京", "lat": 39.9042, "lng": 116.4074, "main_business": "数据湖与数据存储基础设施", "market_cap": 180, "employee_count": 2000, "list_date": "2011-05-05"},
    {"id": "603138", "name": "北京海量数据技术股份有限公司", "short_name": "海量数据", "stock_code": "603138", "market": "沪主板", "industry_id": "ai_data_service", "province": "北京", "city": "北京", "lat": 39.9042, "lng": 116.4074, "main_business": "数据库与数据基础设施", "market_cap": 50, "employee_count": 600, "list_date": "2017-03-06"},
    {"id": "688004", "name": "博汇科技股份有限公司", "short_name": "博汇科技", "stock_code": "688004", "market": "科创板", "industry_id": "ai_app", "province": "北京", "city": "北京", "lat": 39.9042, "lng": 116.4074, "main_business": "AI+视听监测与多媒体处理", "market_cap": 30, "employee_count": 400, "list_date": "2020-06-12"},

    {"id": "002268", "name": "成都卫士通信息产业股份有限公司", "short_name": "电科网安", "stock_code": "002268", "market": "深主板", "industry_id": "ai_app", "province": "四川", "city": "成都", "lat": 30.5728, "lng": 104.0668, "main_business": "AI+密码与信息安全", "market_cap": 250, "employee_count": 3000, "list_date": "2008-08-11"},
    {"id": "688023", "name": "杭州安恒信息技术股份有限公司", "short_name": "安恒信息", "stock_code": "688023", "market": "科创板", "industry_id": "ai_app", "province": "浙江", "city": "杭州", "lat": 30.2741, "lng": 120.1551, "main_business": "AI+网络安全与数据安全", "market_cap": 120, "employee_count": 3500, "list_date": "2019-11-05"},

    {"id": "688031", "name": "星环信息科技(上海)股份有限公司", "short_name": "星环科技", "stock_code": "688031", "market": "科创板", "industry_id": "ai_data_service", "province": "上海", "city": "上海", "lat": 31.2304, "lng": 121.4737, "main_business": "大数据与AI基础软件平台", "market_cap": 100, "employee_count": 1000, "list_date": "2022-10-18"},
    {"id": "300451", "name": "创业慧康科技股份有限公司", "short_name": "创业慧康", "stock_code": "300451", "market": "创业板", "industry_id": "ai_app", "province": "浙江", "city": "杭州", "lat": 30.2741, "lng": 120.1551, "main_business": "AI+医疗信息化", "market_cap": 110, "employee_count": 4000, "list_date": "2015-05-14"},
    {"id": "002410", "name": "广联达科技股份有限公司", "short_name": "广联达", "stock_code": "002410", "market": "深主板", "industry_id": "ai_app", "province": "北京", "city": "北京", "lat": 39.9042, "lng": 116.4074, "main_business": "AI+建筑信息化与BIM", "market_cap": 600, "employee_count": 8000, "list_date": "2010-05-25"},
    {"id": "688039", "name": "杭州当虹科技股份有限公司", "short_name": "当虹科技", "stock_code": "688039", "market": "科创板", "industry_id": "ai_app", "province": "浙江", "city": "杭州", "lat": 30.2741, "lng": 120.1551, "main_business": "AI+视频处理与智能媒体", "market_cap": 50, "employee_count": 400, "list_date": "2019-12-11"},
    {"id": "300033", "name": "浙江核新同花顺网络信息股份有限公司", "short_name": "同花顺", "stock_code": "300033", "market": "创业板", "industry_id": "ai_app", "province": "浙江", "city": "杭州", "lat": 30.2741, "lng": 120.1551, "main_business": "AI+金融信息与量化投资", "market_cap": 1200, "employee_count": 5000, "list_date": "2009-12-25"},

    {"id": "600536", "name": "中国软件与技术服务股份有限公司", "short_name": "中国软件", "stock_code": "600536", "market": "沪主板", "industry_id": "ai_app", "province": "北京", "city": "北京", "lat": 39.9042, "lng": 116.4074, "main_business": "操作系统与基础软件", "market_cap": 450, "employee_count": 8000, "list_date": "2002-05-17"},
    {"id": "688058", "name": "北京宝兰德软件股份有限公司", "short_name": "宝兰德", "stock_code": "688058", "market": "科创板", "industry_id": "ai_app", "province": "北京", "city": "北京", "lat": 39.9042, "lng": 116.4074, "main_business": "中间件与智能运维", "market_cap": 45, "employee_count": 600, "list_date": "2019-11-01"},
    {"id": "688152", "name": "麒麟信安科技股份有限公司", "short_name": "麒麟信安", "stock_code": "688152", "market": "科创板", "industry_id": "ai_app", "province": "湖南", "city": "长沙", "lat": 28.2282, "lng": 112.9388, "main_business": "国产操作系统与信息安全", "market_cap": 100, "employee_count": 800, "list_date": "2022-10-28"},

    {"id": "300166", "name": "北京东方国信科技股份有限公司", "short_name": "东方国信", "stock_code": "300166", "market": "创业板", "industry_id": "ai_data_service", "province": "北京", "city": "北京", "lat": 39.9042, "lng": 116.4074, "main_business": "大数据平台与AI数据治理", "market_cap": 100, "employee_count": 3000, "list_date": "2011-01-25"},
    {"id": "603927", "name": "中科软科技股份有限公司", "short_name": "中科软", "stock_code": "603927", "market": "沪主板", "industry_id": "ai_app", "province": "北京", "city": "北京", "lat": 39.9042, "lng": 116.4074, "main_business": "AI+保险IT与行业软件", "market_cap": 180, "employee_count": 10000, "list_date": "2019-09-09"},
    {"id": "002230", "name": "科大讯飞股份有限公司", "short_name": "科大讯飞", "stock_code": "002230", "market": "深主板", "industry_id": "llm", "province": "安徽", "city": "合肥", "lat": 31.8206, "lng": 117.2272, "main_business": "AI大模型(讯飞星火)与智能语音", "market_cap": 1500, "employee_count": 15000, "list_date": "2008-05-12"},

    {"id": "300496", "name": "中科创达软件股份有限公司", "short_name": "中科创达", "stock_code": "300496", "market": "创业板", "industry_id": "ai_app", "province": "北京", "city": "北京", "lat": 39.9042, "lng": 116.4074, "main_business": "AI+智能操作系统与边缘计算", "market_cap": 350, "employee_count": 10000, "list_date": "2015-12-10"},
    {"id": "002236", "name": "浙江大华技术股份有限公司", "short_name": "大华股份", "stock_code": "002236", "market": "深主板", "industry_id": "ai_app", "province": "浙江", "city": "杭州", "lat": 30.2741, "lng": 120.1551, "main_business": "AI视觉与智慧物联", "market_cap": 800, "employee_count": 22000, "list_date": "2008-05-20"},
    {"id": "688475", "name": "杭州萤石网络股份有限公司", "short_name": "萤石网络", "stock_code": "688475", "market": "科创板", "industry_id": "ai_app", "province": "浙江", "city": "杭州", "lat": 30.2741, "lng": 120.1551, "main_business": "AI+智能家居与视觉", "market_cap": 300, "employee_count": 4000, "list_date": "2022-12-28"},

    {"id": "688386", "name": "江苏泛亚微透科技股份有限公司", "short_name": "泛亚微透", "stock_code": "688386", "market": "科创板", "industry_id": "chassis", "province": "江苏", "city": "常州", "lat": 31.8101, "lng": 119.9741, "main_business": "高性能膜材料与散热材料", "market_cap": 45, "employee_count": 500, "list_date": "2020-10-16"},
    {"id": "300990", "name": "同飞制冷股份有限公司", "short_name": "同飞股份", "stock_code": "300990", "market": "创业板", "industry_id": "cooling", "province": "河北", "city": "廊坊", "lat": 39.5190, "lng": 116.7000, "main_business": "工业制冷与液冷温控设备", "market_cap": 60, "employee_count": 800, "list_date": "2021-05-12"},
    {"id": "301018", "name": "广东申菱环境系统股份有限公司", "short_name": "申菱环境", "stock_code": "301018", "market": "创业板", "industry_id": "cooling", "province": "广东", "city": "佛山", "lat": 23.0218, "lng": 113.1216, "main_business": "数据中心精密空调与特种制冷", "market_cap": 70, "employee_count": 1000, "list_date": "2021-07-07"},

    {"id": "688662", "name": "广州慧智微电子股份有限公司", "short_name": "慧智微", "stock_code": "688662", "market": "科创板", "industry_id": "chip_design", "province": "广东", "city": "广州", "lat": 23.1292, "lng": 113.2644, "main_business": "射频前端芯片与AIoT芯片", "market_cap": 100, "employee_count": 400, "list_date": "2023-01-16"},
    {"id": "688711", "name": "江苏宏微科技股份有限公司", "short_name": "宏微科技", "stock_code": "688711", "market": "科创板", "industry_id": "gpu", "province": "江苏", "city": "常州", "lat": 31.8101, "lng": 119.9741, "main_business": "功率半导体与IGBT模块", "market_cap": 150, "employee_count": 700, "list_date": "2021-09-01"},
    {"id": "300613", "name": "上海富瀚微电子股份有限公司", "short_name": "富瀚微", "stock_code": "300613", "market": "创业板", "industry_id": "gpu", "province": "上海", "city": "上海", "lat": 31.2304, "lng": 121.4737, "main_business": "视频监控芯片与AI SoC", "market_cap": 160, "employee_count": 500, "list_date": "2017-02-20"},
    {"id": "688256", "name": "寒武纪科技股份有限公司", "short_name": "寒武纪", "stock_code": "688256", "market": "科创板", "industry_id": "gpu", "province": "北京", "city": "北京", "lat": 39.9042, "lng": 116.4074, "main_business": "AI芯片设计，智能处理器IP及芯片产品", "market_cap": 1850, "employee_count": 1800, "list_date": "2020-07-20"},

    {"id": "603290", "name": "斯达半导体股份有限公司", "short_name": "斯达半导", "stock_code": "603290", "market": "沪主板", "industry_id": "gpu", "province": "浙江", "city": "嘉兴", "lat": 30.7710, "lng": 120.7551, "main_business": "IGBT模块与功率半导体", "market_cap": 500, "employee_count": 1000, "list_date": "2020-02-04"},
    {"id": "300623", "name": "无锡派克新材料科技股份有限公司", "short_name": "派克新材", "stock_code": "300623", "market": "创业板", "industry_id": "chassis", "province": "江苏", "city": "无锡", "lat": 31.4912, "lng": 120.3119, "main_business": "特种锻件与结构件", "market_cap": 60, "employee_count": 500, "list_date": "2020-11-24"},
    {"id": "688048", "name": "苏州长光华芯光电技术股份有限公司", "short_name": "长光华芯", "stock_code": "688048", "market": "科创板", "industry_id": "optical_module", "province": "江苏", "city": "苏州", "lat": 31.2990, "lng": 120.5853, "main_business": "半导体激光芯片与光通信芯片", "market_cap": 160, "employee_count": 700, "list_date": "2022-04-01"},
    {"id": "301191", "name": "深圳中科飞测科技股份有限公司", "short_name": "中科飞测", "stock_code": "688361", "market": "科创板", "industry_id": "gpu", "province": "广东", "city": "深圳", "lat": 22.5431, "lng": 114.0579, "main_business": "半导体量检测设备", "market_cap": 250, "employee_count": 800, "list_date": "2023-05-19"},
    {"id": "688498", "name": "苏州源杰半导体科技股份有限公司", "short_name": "源杰科技", "stock_code": "688498", "market": "科创板", "industry_id": "optical_module", "province": "江苏", "city": "苏州", "lat": 31.2990, "lng": 120.5853, "main_business": "光芯片与激光器芯片", "market_cap": 140, "employee_count": 400, "list_date": "2022-12-21"},

    {"id": "688220", "name": "翱捷科技股份有限公司", "short_name": "翱捷科技", "stock_code": "688220", "market": "科创板", "industry_id": "chip_design", "province": "上海", "city": "上海", "lat": 31.2304, "lng": 121.4737, "main_business": "蜂窝基带芯片与AIoT SoC", "market_cap": 280, "employee_count": 1000, "list_date": "2022-01-14"},
    {"id": "603160", "name": "深圳市汇顶科技股份有限公司", "short_name": "汇顶科技", "stock_code": "603160", "market": "沪主板", "industry_id": "chip_design", "province": "广东", "city": "深圳", "lat": 22.5431, "lng": 114.0579, "main_business": "指纹识别芯片与传感器", "market_cap": 350, "employee_count": 2000, "list_date": "2016-10-17"},
    {"id": "688099", "name": "晶晨半导体(上海)股份有限公司", "short_name": "晶晨股份", "stock_code": "688099", "market": "科创板", "industry_id": "chip_design", "province": "上海", "city": "上海", "lat": 31.2304, "lng": 121.4737, "main_business": "多媒体SoC芯片与AI芯片", "market_cap": 280, "employee_count": 1200, "list_date": "2019-08-08"},
    {"id": "688595", "name": "芯海科技(深圳)股份有限公司", "short_name": "芯海科技", "stock_code": "688595", "market": "科创板", "industry_id": "chip_design", "province": "广东", "city": "深圳", "lat": 22.5431, "lng": 114.0579, "main_business": "模拟芯片与MCU", "market_cap": 90, "employee_count": 600, "list_date": "2020-09-28"},
    {"id": "688052", "name": "苏州纳芯微电子股份有限公司", "short_name": "纳芯微", "stock_code": "688052", "market": "科创板", "industry_id": "chip_design", "province": "江苏", "city": "苏州", "lat": 31.2990, "lng": 120.5853, "main_business": "传感器信号调理芯片与隔离芯片", "market_cap": 180, "employee_count": 700, "list_date": "2022-04-22"},
    {"id": "688286", "name": "苏州敏芯微电子技术股份有限公司", "short_name": "敏芯股份", "stock_code": "688286", "market": "科创板", "industry_id": "chip_design", "province": "江苏", "city": "苏州", "lat": 31.2990, "lng": 120.5853, "main_business": "MEMS传感器芯片", "market_cap": 50, "employee_count": 400, "list_date": "2020-08-10"},

    {"id": "688981", "name": "中芯国际集成电路制造有限公司", "short_name": "中芯国际", "stock_code": "688981", "market": "科创板", "industry_id": "chip_design", "province": "上海", "city": "上海", "lat": 31.2304, "lng": 121.4737, "main_business": "集成电路晶圆代工", "market_cap": 4800, "employee_count": 20000, "list_date": "2020-07-16"},
    {"id": "002156", "name": "通富微电子股份有限公司", "short_name": "通富微电", "stock_code": "002156", "market": "深主板", "industry_id": "gpu", "province": "江苏", "city": "南通", "lat": 31.9796, "lng": 120.8937, "main_business": "集成电路封装测试", "market_cap": 350, "employee_count": 8000, "list_date": "2007-08-16"},
    {"id": "600584", "name": "江苏长电科技股份有限公司", "short_name": "长电科技", "stock_code": "600584", "market": "沪主板", "industry_id": "gpu", "province": "江苏", "city": "江阴", "lat": 31.9210, "lng": 120.2650, "main_business": "集成电路封装测试", "market_cap": 600, "employee_count": 20000, "list_date": "2003-06-03"},
    {"id": "002185", "name": "天水华天科技股份有限公司", "short_name": "华天科技", "stock_code": "002185", "market": "深主板", "industry_id": "gpu", "province": "甘肃", "city": "天水", "lat": 34.5808, "lng": 105.7249, "main_business": "集成电路封装测试", "market_cap": 280, "employee_count": 20000, "list_date": "2007-11-20"},

    {"id": "002402", "name": "深圳和而泰智能控制股份有限公司", "short_name": "和而泰", "stock_code": "002402", "market": "深主板", "industry_id": "ai_app", "province": "广东", "city": "深圳", "lat": 22.5431, "lng": 114.0579, "main_business": "智能控制器与AIoT", "market_cap": 140, "employee_count": 6000, "list_date": "2010-05-11"},
    {"id": "300458", "name": "珠海全志科技股份有限公司", "short_name": "全志科技", "stock_code": "300458", "market": "创业板", "industry_id": "chip_design", "province": "广东", "city": "珠海", "lat": 22.2707, "lng": 113.5775, "main_business": "AIoT应用处理器SoC", "market_cap": 180, "employee_count": 1000, "list_date": "2015-05-15"},
    {"id": "688018", "name": "乐鑫信息科技(上海)股份有限公司", "short_name": "乐鑫科技", "stock_code": "688018", "market": "科创板", "industry_id": "chip_design", "province": "上海", "city": "上海", "lat": 31.2304, "lng": 121.4737, "main_business": "WiFi+蓝牙AIoT芯片", "market_cap": 200, "employee_count": 700, "list_date": "2019-07-22"},
    {"id": "688608", "name": "恒玄科技(上海)股份有限公司", "short_name": "恒玄科技", "stock_code": "688608", "market": "科创板", "industry_id": "chip_design", "province": "上海", "city": "上海", "lat": 31.2304, "lng": 121.4737, "main_business": "AIoT音频SoC芯片", "market_cap": 200, "employee_count": 500, "list_date": "2020-12-16"},

    {"id": "688012", "name": "中微半导体设备(上海)股份有限公司", "short_name": "中微公司", "stock_code": "688012", "market": "科创板", "industry_id": "gpu", "province": "上海", "city": "上海", "lat": 31.2304, "lng": 121.4737, "main_business": "半导体刻蚀设备与薄膜沉积设备", "market_cap": 1200, "employee_count": 1500, "list_date": "2019-07-22"},
    {"id": "002371", "name": "北方华创科技集团股份有限公司", "short_name": "北方华创", "stock_code": "002371", "market": "深主板", "industry_id": "gpu", "province": "北京", "city": "北京", "lat": 39.9042, "lng": 116.4074, "main_business": "半导体设备(刻蚀/薄膜/清洗)", "market_cap": 2200, "employee_count": 5000, "list_date": "2010-03-16"},
    {"id": "688200", "name": "北京华峰测控技术股份有限公司", "short_name": "华峰测控", "stock_code": "688200", "market": "科创板", "industry_id": "gpu", "province": "北京", "city": "北京", "lat": 39.9042, "lng": 116.4074, "main_business": "半导体测试设备", "market_cap": 280, "employee_count": 600, "list_date": "2020-02-18"},

    {"id": "688246", "name": "嘉和美康(北京)科技股份有限公司", "short_name": "嘉和美康", "stock_code": "688246", "market": "科创板", "industry_id": "ai_app", "province": "北京", "city": "北京", "lat": 39.9042, "lng": 116.4074, "main_business": "AI+医疗信息化", "market_cap": 60, "employee_count": 800, "list_date": "2021-12-14"},
    {"id": "688131", "name": "上海皓元医药股份有限公司", "short_name": "皓元医药", "stock_code": "688131", "market": "科创板", "industry_id": "ai_app", "province": "上海", "city": "上海", "lat": 31.2304, "lng": 121.4737, "main_business": "AI+药物研发与分子砌块", "market_cap": 120, "employee_count": 1000, "list_date": "2021-06-08"},
    {"id": "300759", "name": "康龙化成(北京)新药技术股份有限公司", "short_name": "康龙化成", "stock_code": "300759", "market": "创业板", "industry_id": "ai_app", "province": "北京", "city": "北京", "lat": 39.9042, "lng": 116.4074, "main_business": "AI+CRO药物研发服务", "market_cap": 600, "employee_count": 15000, "list_date": "2019-01-28"},

    {"id": "688365", "name": "光云科技股份有限公司", "short_name": "光云科技", "stock_code": "688365", "market": "科创板", "industry_id": "ai_app", "province": "浙江", "city": "杭州", "lat": 30.2741, "lng": 120.1551, "main_business": "AI+电商SaaS", "market_cap": 50, "employee_count": 1500, "list_date": "2020-04-29"},
    {"id": "300766", "name": "每日互动股份有限公司", "short_name": "每日互动", "stock_code": "300766", "market": "创业板", "industry_id": "ai_data_service", "province": "浙江", "city": "杭州", "lat": 30.2741, "lng": 120.1551, "main_business": "数据智能与AI数据中台", "market_cap": 100, "employee_count": 1000, "list_date": "2019-03-25"},
    {"id": "300674", "name": "宇信科技集团股份有限公司", "short_name": "宇信科技", "stock_code": "300674", "market": "创业板", "industry_id": "ai_app", "province": "北京", "city": "北京", "lat": 39.9042, "lng": 116.4074, "main_business": "AI+金融IT与银行核心系统", "market_cap": 150, "employee_count": 8000, "list_date": "2018-11-07"},
    {"id": "300803", "name": "北京指南针科技发展股份有限公司", "short_name": "指南针", "stock_code": "300803", "market": "创业板", "industry_id": "ai_app", "province": "北京", "city": "北京", "lat": 39.9042, "lng": 116.4074, "main_business": "AI+证券信息服务", "market_cap": 300, "employee_count": 2000, "list_date": "2019-11-18"},

    {"id": "688188", "name": "上海柏楚电子科技股份有限公司", "short_name": "柏楚电子", "stock_code": "688188", "market": "科创板", "industry_id": "ai_app", "province": "上海", "city": "上海", "lat": 31.2304, "lng": 121.4737, "main_business": "AI+激光切割控制系统", "market_cap": 450, "employee_count": 800, "list_date": "2019-08-08"},
    {"id": "603786", "name": "科博达技术股份有限公司", "short_name": "科博达", "stock_code": "603786", "market": "沪主板", "industry_id": "ai_app", "province": "浙江", "city": "杭州", "lat": 30.2741, "lng": 120.1551, "main_business": "汽车电子控制器", "market_cap": 250, "employee_count": 3000, "list_date": "2019-10-15"},
    {"id": "300552", "name": "北京万集科技股份有限公司", "short_name": "万集科技", "stock_code": "300552", "market": "创业板", "industry_id": "ai_app", "province": "北京", "city": "北京", "lat": 39.9042, "lng": 116.4074, "main_business": "AI+智能交通与激光雷达", "market_cap": 100, "employee_count": 2000, "list_date": "2016-10-21"},

    {"id": "688007", "name": "深圳光峰科技股份有限公司", "short_name": "光峰科技", "stock_code": "688007", "market": "科创板", "industry_id": "ai_app", "province": "广东", "city": "深圳", "lat": 22.5431, "lng": 114.0579, "main_business": "AI+激光显示与光学引擎", "market_cap": 120, "employee_count": 1000, "list_date": "2019-07-22"},
    {"id": "688003", "name": "苏州天准科技股份有限公司", "short_name": "天准科技", "stock_code": "688003", "market": "科创板", "industry_id": "ai_app", "province": "江苏", "city": "苏州", "lat": 31.2990, "lng": 120.5853, "main_business": "AI+机器视觉与精密测量", "market_cap": 100, "employee_count": 800, "list_date": "2019-07-22"}
  ]
}
